[
{
    "model": "locations.location",
    "pk": 1,
    "fields": {
        "building_code": 24001,
        "short_name": "AMST1",
        "name": "Amstel 1",
        "description": "Stopera - Stadhuis",
        "active": true,
        "last_modified": "2023-11-29",
        "street": "Amstel",
        "street_number": 1,
        "street_number_letter": null,
        "street_number_extension": null,
        "postal_code": "1011PN",
        "city": "Amsterdam",
        "construction_year": 1985,
        "floor_area": null,
        "longitude": null,
        "latitude": null,
        "rd_x": 121829.0,
        "rd_y": 486752.0,
        "note": ""
    }
},
{
    "model": "locations.location",
    "pk": 2,
    "fields": {
        "building_code": 24002,
        "short_name": "WLP22",
        "name": "Waterlooplein 22",
        "description": "Muziektheater",
        "active": true,
        "last_modified": "2023-11-29",
        "street": "Waterlooplein",
        "street_number": 22,
        "street_number_letter": null,
        "street_number_extension": null,
        "postal_code": "1011PG",
        "city": "Amsterdam",
        "construction_year": 1985,
        "floor_area": 82501,
        "longitude": null,
        "latitude": null,
        "rd_x": 121946.0,
        "rd_y": 486741.0,
        "note": ""
    }
},
{
    "model": "locations.location",
    "pk": 3,
    "fields": {
        "building_code": 24003,
        "short_name": "HGR502",
        "name": "Herengracht 502",
        "description": "Ambstwoning",
        "active": true,
        "last_modified": "2023-11-29",
        "street": "Herengracht",
        "street_number": 502,
        "street_number_letter": null,
        "street_number_extension": null,
        "postal_code": "1017CB",
        "city": "Amsterdam",
        "construction_year": 1672,
        "floor_area": 1130,
        "longitude": null,
        "latitude": null,
        "rd_x": 121369.0,
        "rd_y": 486445.0,
        "note": ""
    }
},
{
    "model": "locations.location",
    "pk": 4,
    "fields": {
        "building_code": 24005,
        "short_name": "VDM26-28",
        "name": "Van Der Madeweg 26",
        "description": "AmsterdamWerkt",
        "active": true,
        "last_modified": "2023-11-29",
        "street": "Van Der Madeweg",
        "street_number": 26,
        "street_number_letter": null,
        "street_number_extension": null,
        "postal_code": "1114AM",
        "city": "Amsterdam-Duivendrecht",
        "construction_year": 1970,
        "floor_area": 4189,
        "longitude": null,
        "latitude": null,
        "rd_x": 123450.0,
        "rd_y": 482270.0,
        "note": ""
    }
}
]
